id,name,city,longitude,latitude,fixed_cost_k_eur
L1,Gütersloh,Gütersloh,8.4143,51.8950,450
L2,Düren,Düren,6.4925,50.8078,480
L3,Dorsten,Dorsten,6.9635,51.6643,520
L4,Harsewinkel,Harsewinkel,8.2306,51.9621,470
L5,Langenhagen,Langenhagen,9.6983,52.4504,510
L6,Hannover,Hannover,9.8053,52.3199,460
